id,fuente,fecha,dia_sem,ccaa,provincia,municipio,carretera,pkm,lat,lon,fallecidos,alcohol,droga,huido,genero,ciclistas
"1",https://www.20minutos.es/noticia/427342/0/conductor/ciclista/muerto/,2008/11/08 04:30:00,Sábado,Cataluña/Catalunya,Barcelona,Castellar del Vallès,B-124,,41.587275,2.0897053,"1",Sí,,,Hombre,Jordi S.P.
"2",http://www.europapress.es/navarra/noticia-sucesos-ampl-fallece-ciclista-otro-resulta-herido-grave-ser-arrollados-turismo-carrascal-20080720131333.html,2008/07/20 09:45:00,Domingo,Comunidad Foral de Navarra,Navarra,Unzué,N-121,"19",42.651821,-1.644859,"1",Sí,,,Hombre,A.P.C.
"3",https://www.20minutos.es/noticia/406179/0/atropello/ciclista/lepe/,2008/08/18 13:00:00,Sábado,Andalucía,Huelva,Lepe,,,37.23942,-7.202018,"1",Sí,,Sí,Hombre,MAS
"4",https://www.20minutos.es/noticia/406179/0/atropello/ciclista/lepe/,2008/08/18 15:00:00,Sábado,Castilla y León,León,Santiago Millas,LE-133,,42.388264,-6.101552,"1",,,,Hombre,C.P.S.
"5",https://elpais.com/diario/2009/01/26/cvalenciana/1233001080_850215.html,2009/01/26 07:00:00,Lunes,Comunitat Valenciana,València,Estivella,N-234,,39.728485,-0.349663,"1",,,,,Desconocido
"6",https://www.esciclismo.com/ampliada.asp?Id=9304,2009/01/14 16:00:00,Miércoles,Illes Balears,Illes Balears,Bunyola (Mallorca),MA-2020,,39.69266,2.7014152,"1",,,,,Antonio Caldés Serra
"7",https://www.farodevigo.es/portada-arousa/2009/07/15/ciclista-fallece-arrollado-camion-irrumpio-carretera/348597.html,2009/07/14 11:15:00,Martes,Galicia,Pontevedra,Barros,PO-531,"11",42.556955,-8.629492,"1",,,,,Manuel Núñez Buceta
"8",https://www.elnortedecastilla.es/20090825/local/salamanca/fallece-atropellada-nina-cuando-200908251838.html,2009/08/25 17:30:00,Martes,Castilla y León,Salamanca,Calzada de Valdunciel,DSA-510,,41.085344,-5.710377,"1",,,,,Desconocido
"9",https://elpais.com/elpais/2009/09/20/actualidad/1253434618_850215.html,2009/09/19 20:45:00,Sábado,Andalucía,Málaga,Almayate,N-340,,36.726763,-4.131203,"1",,,,Hombre,J. L. B
"10",https://www.20minutos.es/noticia/780409/0/,2010/08/01 07:30:00,Domingo,Illes Balears,Illes Balears,Alaior (Menorca),ME-1,"13",39.934365,4.1312808,"2",,,,,"Desconocido, Desconocido"
"11",https://www.20minutos.es/noticia/824913/0/,2010/09/26 09:15:00,Domingo,Andalucía,Sevilla,Los Palacios y Villafranca,N-IV,"571",37.172792,-5.925781,"2",No,,No,Hombre,"Desconocido, Desconocido"
"12",https://ultimahora.es/sucesos/ultimas/2010/10/06/22057/un-ciclista-muere-arrollado-por-un-coche-en-la-carretera-de-petra-a-santa-margalida.html,2010/10/05 13:15:00,Lunes,Illes Balears,Illes Balears,Petra (Mallorca),MA-3340,"6",39.622877,3.1092084,"1",,,,,Miquel Oliver Riera
"14",https://elpais.com/elpais/2010/08/03/actualidad/1280823426_850215.html,2010/08/02 10:00:00,Lunes,Comunitat Valenciana,València,Serra,CV-310,"21",39.680538,-0.426475,"1",,,,,Desconocido
"15",http://www.diariodeavila.es/noticia.cfm/Deportes/20100725/joven/corredor/victor/jimenez/fallece/atropellado/cantabria/067D98B3-BCBA-FBFF-D1FC85F3C35AE640,2010/07/24 19:00:00,Sábado,Cantabria,Cantabria,Cabuérniga,CA-182,"1",43.253267,-4.38064,"1",,,Sí,Hombre,Víctor Jiménez Garcinuño
"16",https://www.eldiariomontanes.es/20110101/local/cantabria-general/muere-ciclista-colindres-atropellado-201101011150.html,2010/12/31 20:30:00,Viernes,Cantabria,Cantabria,Colindres,N-629,"86",43.385468,-3.443579,"1",,,,,M.Z.A.
"17",https://elpais.com/diario/2010/04/08/catalunya/1270688846_850215.html,2010/04/08 00:00:00,Jueves,Cataluña/Catalunya,Tarragona,Miami Platja,N-340,,40.984291,0.9039183,"3",No,,No,Hombre,"Cahnell C., Sandra, G., Medhi I."
"18",https://www.canarias7.es/hemeroteca/muere_un_ciclista_atropellado_en_maspalomas-CGCSN202246,2011/02/21 08:00:00,Lunes,Canarias,Las Palmas,Maspalomas (Gran Canaria),GC- 500,,27.754141,-15.60165,"1",,,,,Desconocido
"19",https://www.diarioinformacion.com/elche/2011/06/06/ciclistas-fallecen-arrollados-turismo-via-parque-elche/1135180.html,2011/06/05 09:00:00,Domingo,Comunitat Valenciana,Alacant,Torellano,CV-86,,38.29884,-0.578581,"2",,,,,"Desconocido, Desconocido"
"20",https://www.laopiniondemurcia.es/sucesos/2011/06/29/muere-ciclista-atropellado-carretera-archivel/333723.html,2011/06/28 17:00:00,Martes,Región de Murcia,Murcia,Archivel,RM-702,,38.083822,-2.007187,"1",,,,Hombre,Desconocido
"21",https://elpais.com/elpais/2011/09/09/actualidad/1315556218_850215.html,2011/09/09 21:45:00,Viernes,Andalucía,Sevilla,La Rinconada,A-8002,"5",37.475049,-5.97592,"1",,,Sí,Hombre,Desconocido
"22",https://elpais.com/ccaa/2012/06/15/catalunya/1339744227_842167.html,2012/06/15 06:30:00,Viernes,Cataluña/Catalunya,Tarragona,El Vendrell,N-340,,41.216416,1.543491,"1",,,Sí,Hombre,Desconocido
"23",https://elpais.com/ccaa/2012/08/18/catalunya/1345316604_369103.html,2012/08/18 07:45:00,Sábado,Cataluña/Catalunya,Tarragona,Santa Oliva,C-51,"7",41.258286,1.4998355,"1",,,,,Manuel M.C
"24",https://www.esciclismo.com/ampliada.asp?Id=24239,2012/12/21 07:45:00,Viernes,Castilla-La Mancha,Albacete,Albacete,CM-332,"3",39.02583,-1.752125,"1",,,,,J.M.M.N.
"25",https://www.esciclismo.com/ampliada.asp?Id=23702,2012/10/14 08:30:00,Domingo,Illes Balears,Illes Balears,Santa María (Mallorca),MA-13A,,39.653636,2.7784033,"1",,,,,Desconocido
"26",https://elpais.com/deportes/2012/12/16/actualidad/1355660722_394187.html,2012/12/16 09:30:00,Domingo,País Vasco/Euskadi,Bizkaia,Iurreta,N-634,,43.175293,-2.637188,"1",,,,,Iñaki Lejarreta
"27",https://www.elperiodico.com/es/sociedad/20120828/un-chica-muere-accidente-constanti-2192871,2012/08/28 10:30:00,Martes,Cataluña/Catalunya,Tarragona,Vallmoll,T-751,"2",41.237047,1.2413555,"1",,,,,Desconocido
"28",https://www.canarias7.es/hemeroteca/fallece_un_ciclista_tras_chocar_contra_una_guagua_en_mogan_-KCCSN244709,2012/01/07 11:30:00,Sábado,Canarias,Las Palmas,Mogán (Gran Canaria),GC-500,"8",27.785517,-15.7194,"1",,,,,Desconocido
"29",https://elpais.com/ccaa/2014/05/05/catalunya/1399301839_391637.html,2012/02/12 13:00:00,Domingo,Cataluña/Catalunya,Lleida,Balaguer,C-13,"26",41.736534,0.781975,"2",No,No,No,Hombre,"Joan, A., Pere, P."
"30",https://www.eldiariomontanes.es/rc/20120919/deportes/mas-deporte/fallece-tras-atropello-victor-201209191623.html,2012/09/19 14:00:00,Miércoles,Comunitat Valenciana,Castelló,Almedíjar,CV200,"10",39.879856,-0.374686,"1",,,,,Víctor Cabedo
"31",https://www.diariodemallorca.es/sucesos/2014/02/24/condenan-policias-atropello-mortal-ciclista/913436.html,2012/03/26 10:30:00,Domingo,Illes Balears,Illes Balears,Llucmajor (Mallorca),Ma-6015,,39.391922,2.7621245,"1",Sí,No,Sí,Hombre,Desconocido
"32",https://www.esciclismo.com/ampliada.asp?Id=21667,2012/04/23 10:30:00,Domingo,Región de Murcia,Murcia,Monteagudo,N-340,,38.018352,-1.097336,"1",,,,,Desconocido
"33",https://www.canarias7.es/hemeroteca/fallece_arrollado_un_ciclista_holandes_en_montana_la_data-HCCSN244614,2012/01/05 11:30:00,Jueves,Canarias,Las Palmas,San Bartolomé de Tirajana (Gran Canaria),GC-503,,27.796211,-15.61203,"1",,,,,Desconocido
"34",https://www.esciclismo.com/ampliada.asp?Id=23121,2012/08/23 11:45:00,Jueves,Castilla y León,León,Toral de los Vados,N-120,,42.549576,-6.779747,"1",,,,,Desconocido
"35",https://www.esciclismo.com/ampliada.asp?Id=22839,2012/08/01 12:45:00,Miércoles,Castilla y León,Valladolid,Mojados,N-601,,41.450552,-4.666643,"1",,,,,Desconocido
"36",https://as.com/ciclismo/2012/06/25/mas_ciclismo/1340575204_850215.html,2012/06/24 13:15:00,Domingo,Andalucía,Jaén,Huelma,A-324,"21",37.683417,-3.484202,"1",,,,,José María Sánchez
"37",https://www.esciclismo.com/ampliada.asp?Id=23989,2012/11/14 16:15:00,Domingo,Andalucía,Granada,Albolote,N-323,"117",37.272367,-3.683041,"1",,,,,Desconocido
"38",https://elpais.com/ccaa/2012/11/15/catalunya/1353001040_634589.html,2012/12/15 18:00:00,Sábado,Cataluña/Catalunya,Tarragona,Deltebre,TV-3454,"13",40.706198,0.7738731,"1",Sí,,Sí,Hombre,Desconocido
"39",https://elpais.com/ccaa/2012/07/26/catalunya/1343324773_921033.html,2012/07/26 19:15:00,Jueves,Cataluña/Catalunya,Tarragona,La Selva del Camp,TV-7048,,41.209935,1.1393672,"1",,,,,Desconocido
"40",https://ultimahora.es/sucesos/ultimas/2012/08/21/79147/ciclista-muere-tras-ser-arrollado-por-vehiculo-misma-zona-ayer-perdieron-vida-dos-personas.html,2012/08/20 00:00:00,Lunes,Illes Balears,Illes Balears,Porto Cristo (Mallorca),Ma-4020,"9",39.561497,3.27046,"1",No,,No,Hombre,Nicolai K
"41",https://elpais.com/ccaa/2013/01/31/madrid/1359622031_269190.html,2013/01/31 07:00:00,Jueves,Comunidad de Madrid,Madrid,Alcalá de Henares,A-2,,40.505584,-3.352925,"1",No,No,No,Mujer,Desconocido
"42",https://elpais.com/ccaa/2013/10/21/madrid/1382355343_450879.html,2013/10/21 07:30:00,Lunes,Castilla-La Mancha,Toledo,Torrejón de la Calzada,A-42,"3",40.185219,-3.806826,"1",,,Sí,,Óscar Bautista
"43",https://elpais.com/ccaa/2013/08/23/catalunya/1377258525_663526.html,2013/08/23 11:00:00,Viernes,Cataluña/Catalunya,Barcelona,Vilobí del Penedès,BV-2127,"5",41.38681,1.6705814,"1",,,,,Gonzalo L. M
"44",http://www.heraldodiariodesoria.es/noticias/soria/ciclista-15-anos-fallece-arrollada-coche-n-111-fuentecantos_19225.html,2013/08/22 13:00:00,Miércoles,Castilla y León,Soria,Fuentecantos,N-111,"236",41.853239,-2.456934,"1",,,,,María García Rubio
"45",https://www.farodevigo.es/sucesos/2013/01/04/muere-presidente-club-ciclista-bueu-arrollado-camion-placeres/735471.html,2013/01/03 17:30:00,Jueves,Galicia,Pontevedra,Os Praceres,PO-11,"3",42.402615,-8.685373,"1",,,,Hombre,Cristóbal Hermida Freire
"46",https://elpais.com/politica/2013/05/26/actualidad/1369581372_350625.html,2013/05/26 10:15:00,Domingo,Región de Murcia,Murcia,San Javier,,,37.813244,-0.825921,"1",Sí,,No,Hombre,Desconocido
"47",https://elpais.com/politica/2013/07/29/actualidad/1375106338_543660.html,2013/08/28 10:30:00,Domingo,Castilla y León,Valladolid,Aguasal,CL-602,"83",41.294982,-4.665255,"2",Sí,No,No,Mujer,"Diego G.C, Sergio G.H. "
"48",https://elpais.com/ccaa/2013/02/10/andalucia/1360497993_199120.html,2013/02/10 11:15:00,Domingo,Andalucía,Málaga,Campillos,A-384,,37.051839,-4.772269,"2",Sí,,No,Hombre,"Desconocido, Desconocido"
"49",https://elpais.com/ccaa/2013/04/04/paisvasco/1365092059_070322.html,2013/04/03 11:30:00,Miércoles,País Vasco/Euskadi,Bizkaia,Basauri,BI-625,,43.225067,-2.876691,"1",,Sí,No,Hombre,Jaime Odriozola
"50",https://elpais.com/ccaa/2013/04/21/catalunya/1366557374_755395.html,2013/04/23 11:30:00,Martes,Cataluña/Catalunya,Tarragona,Montroig del Camp,N-340,,41.051043,1.0012021,"1",,Sí,,Hombre,Desconocido
"51",https://elpais.com/ccaa/2013/06/30/madrid/1372591973_802142.html,2013/06/30 12:30:00,Domingo,Comunidad de Madrid,Madrid,San Fernando de Henares,M-21,,40.445075,-3.52848,"1",,,,,Desconocido
"52",https://elpais.com/ccaa/2013/10/24/catalunya/1382635124_057114.html,2013/10/24 15:15:00,Jueves,Cataluña/Catalunya,Lleida,Puiggròs,L-200,"11",41.556916,0.8833567,"1",,,,,Desconocido
"53",https://www.esciclismo.com/ampliada.asp?Id=28023,2013/10/27 16:30:00,Sábado,Castilla-La Mancha,Ciudad Real,Almagro,CM-412,,38.892571,-3.7427,"1",,,,,Desconocido
"54",https://www.esciclismo.com/ampliada.asp?Id=24771,2013/02/09 16:45:00,Viernes,Andalucía,Córdoba,Hornachuelos,A-431,"38",37.775081,-5.205498,"1",,,,,Desconocido
"55",https://www.esciclismo.com/ampliada.asp?Id=28115,2013/11/07 17:45:00,Jueves,Castilla-La Mancha,Toledo,Villarubia de Santiago,CM-3001,,39.949801,-3.354899,"1",,,,,Desconocido
"56",https://elpais.com/ccaa/2013/07/31/galicia/1375293692_695741.html,2013/07/31 19:00:00,Miércoles,Galicia,A Coruña,Paderne,N-651,,43.28715,-8.211644,"1",,,,,Desconocido
"57",https://www.esciclismo.com/ampliada.asp?Id=31958,2014/10/13 02:00:00,Domingo,Comunitat Valenciana,Castelló,Castelló,CV-149,,40.017806,-0.015151,"1",,,,Mujer,P.T.
"58",https://www.esciclismo.com/ampliada.asp?Id=28964,2014/02/08 07:00:00,Sábado,Cataluña/Catalunya,Barcelona,San María de Palautordera,BV-5301,,41.683726,2.4467305,"1",,,Sí,Hombre,Desconocido
"59",,2014/02/02 07:15:00,Domingo,Andalucía,Málaga,Málaga ,A-7054,,36.732689,-4.555038,"1",,,,Mujer,E.G.A
"60",https://www.20minutos.es/noticia/2213311/0/fallece-ciclista-tras-ser-atropellado-por-vehiculo-a-4-altura-carmona/,2014/08/10 07:45:00,Domingo,Andalucía,Sevilla,Carmona,A-4,"518",37.487319,-5.645925,"1",,,,,Desconocido
"61",https://elpais.com/politica/2014/07/27/actualidad/1406451113_336863.html,2014/07/27 08:00:00,Domingo,Castilla-La Mancha,Cuenca,Motilla del Palancar,CM-2202,"3",39.571591,-1.883435,"1",Sí,,No,Mujer,Desconocido
"62",https://sotograndedigital.com/fallece-un-ciclista-atropellado-a-la-altura-del-cruce-de-el-toril/,2014/06/06 08:45:00,Viernes,Andalucía,Cádiz,San Roque,A-7,"118",36.208547,-5.38123,"1",,,,,Desconocido
"63",https://www.20minutos.es/noticia/2264537/0/fallece-ciclista-65-anos-tras-ser-atropellado-por-ambulancia-transporte-colectivo-hoya-gonzalo/,2014/10/13 09:30:00,Lunes,Castilla-La Mancha,Albacete,Hoya-Gonzalo,AB-215,"4",38.960819,-1.525936,"1",,,,,Desconocido
"64",https://elpais.com/politica/2014/06/22/actualidad/1403427124_821796.html,2014/06/22 09:30:00,Domingo,Comunidad Foral de Navarra,Navarra,Caparroso,NA-1240,"1",42.368996,-1.635588,"2",,,,,"Desconocido, Desconocido"
"65",https://www.laprovincia.es/lanzarote/2014/08/21/conductor-atropello-ciclista-tinajo-triplicaba/628167.html,2014/08/18 12:45:00,Lunes,Canarias,Las Palmas,Tinajo (Lanzarote),,,29.094215,-13.66899,"1",Sí,Sí,,Hombre,Desconocido
"66",https://elpais.com/ccaa/2014/09/22/madrid/1411381254_915576.html,2014/09/22 10:45:00,Lunes,Castilla-La Mancha,Toledo,Torrejón de la Calzada,A42,"29",40.143749,-3.826053,"1",,,,,Desconocido
"67",https://www.20minutos.es/noticia/2264653/0/fallece-ciclista-atropellado-por-camion-tomelloso-ciudad-real/,2014/10/13 11:45:00,Lunes,Castilla-La Mancha,Ciudad Real,Tomelloso,CM-3109,,39.134769,-3.038533,"1",,,,,Desconocido
"68",https://www.20minutos.es/noticia/2335219/0/fallece-atropellado-ciclista-36-anos-n-323-jabalquinto/,2014/12/27 13:30:00,Sábado,Andalucía,Jaén,Jabalquinto,N-323,"11",38.019326,-3.78386,"1",,,,,Desconocido
"69",http://www.marca.com/2014/04/12/mas_deportes/otros_deportes/1397338930.html,2014/04/12 14:30:00,Sábado,Castilla-La Mancha,Toledo,Nambroca,CM-4019,"1",39.792102,-3.937479,"1",,,,,Desconocido
"70",https://www.20minutos.es/noticia/2303887/0/fallece-ciclista-atropellado-carretera-que-une-roquetas-mar-con-almerimar/,2014/11/21 15:30:00,Viernes,Andalucía,Almería,El Ejido,AL-3300,,36.704496,-2.68632,"1",,,,,Desconocido
"71",https://www.20minutos.es/noticia/2239968/0/muere-ciclista-71-anos-atropellado-por-turismo-villarrobledo-albacete/,2014/09/16 16:30:00,Martes,Castilla-La Mancha,Albacete,Villarobledo,N-310,"138",39.29487,-2.565399,"1",,,,,Desconocido
"72",https://www.20minutos.es/noticia/2237979/0/fallece-ciclista/atropellado-andujar/,2014/09/14 19:45:00,Domingo,Andalucía,Jaén,Andújar,A-311,"34",38.011564,-4.04676,"1",,,,,Desconocido
"73",https://www.esciclismo.com/ampliada.asp?Id=29623,2014/04/05 19:45:00,Sábado,Andalucía,Almería,Níjar,AL-3201,"2",36.817261,-2.183415,"1",Sí,,Sí,,Desconocido
"74",https://www.20minutos.es/noticia/2422150/0/muere-ciclista-25-anos-tras-ser-atropellado-por-turismo-altura-madridejos-toledo/,2015/04/02 04:15:00,Jueves,Andalucía,Toledo,Madridejos,A-4,,39.483771,-3.525311,"1",,,,,D.R.
"75",https://elpais.com/ccaa/2015/09/06/catalunya/1441533926_285928.html,2015/09/05 08:15:00,Sábado,Cataluña/Catalunya,Lleida,Soses,L-7041,,41.524985,0.48181,"2",Sí,No,Sí,Hombre,"José R. M, Javier M. B"
"76",https://www.20minutos.es/noticia/2484490/0/muere-ciclista-atropellado-por-turismo-balazote-albacete/,2015/06/09 09:15:00,Martes,Castilla-La Mancha,Albacete,Balazote,CM-3135,"28",38.928035,-2.139808,"1",,,,,Desconocido
"77",http://pedaleandoporcanarias.com/2015/10/atropello-mortal-de-un-ciclista-en-las-galletas/,2015/10/15 09:30:00,Jueves,Canarias,Tenerife,Las Galletas (Tenerife),TF-66,,28.021623,-16.67815,"1",,,,,Desconocido
"78",https://www.20minutos.es/noticia/2496190/0/muere-ciclista-atropellado-por-camion-gualta-girona/,2015/06/23 11:00:00,Martes,Cataluña/Catalunya,Girona,Gualta,C-31,"347",42.029735,3.1281759,"1",,,,,Desconocido
"79",https://www.20minutos.es/noticia/2407637/0/fallece-ciclista-74-anos-al-ser-atropellado-maria-salut/,2015/03/17 11:15:00,Martes,Illes Balears,Illes Balears,Maria de la Salut (Mallorca),MA-3340,,39.655666,3.0978822,"1",,,,,Desconocido
"80",https://www.20minutos.es/noticia/2411795/0/muere-ciclista/atropello-fuga/el-puerto-cadiz/,2015/03/22 12:30:00,Domingo,Andalucía,Cádiz,Puerto de Santa María,A-2001,"8",36.645071,-6.262116,"1",,,Sí,Hombre,Desconocido
"81",https://www.esciclismo.com/ampliada.asp?Id=32602,2015/01/07 19:00:00,Miércoles,Castilla y León,Burgos,Medina de Pomar,BU-551,"17",42.950375,-3.459633,"1",,,,,Desconocido
"82",http://pedaleandoporcanarias.com/2015/12/fallece-un-ciclista-por-colision-con-una-guagua-en-santa-cruz/,2015/12/05 10:00:00,Sábado,Canarias,Tenerife,Santa Cruz de Tenerife (Tenerife),TF-11,,28.491763,-16.22275,"1",,,,,Víctor M. H. G
"83",https://www.esciclismo.com/ampliada.asp?Id=32712,2015/01/17 12:45:00,Sábado,Cataluña/Catalunya,Tarragona,Rodonyà,C-51z,"21",41.290699,1.3817044,"1",,,,,Desconocido
"84",https://www.20minutos.es/noticia/2554792/0/muere-ciclista-atropellado-autopista/,2015/09/12 16:15:00,Sábado,Illes Balears,Illes Balears,,MA-19,,39.494015,2.7910437,"1",,,,,Desconocido
"85",https://www.20minutos.es/noticia/2362582/0/muere-ciclista-atropellado-por-vehiculo-cuyo-conductor-da-negativo-alcohol-drogas/,2015/01/30 17:30:00,Jueves,Andalucía,Almería,Níjar,AL-3108,"5",36.860163,-2.163057,"1",No,No,No,Hombre,M.S.C.
"86",https://www.20minutos.es/noticia/2511868/0/fallece-ciclista-tras-ser-atropellado-por-turismo-segura-gipuzkoa/,2015/07/11 17:45:00,Sábado,País Vasco/Euskadi,Gipuzkoa,Segura,GI-3261,,43.015802,-2.273607,"1",,,,,Desconocido
"87",https://www.20minutos.es/noticia/2457529/0/fallece-ciclista-al-ser-atropellado-por-camion-arteixo-coruna/,2015/05/11 18:45:00,Lunes,Galicia,A Coruña,Arteixo,AC-415,,43.343014,-8.452415,"1",,,,,I.M.R.
"88",https://www.20minutos.es/noticia/2544482/0/fallece-ciclista-tras-ser-atropellado-por-coche-don-benito-badajoz/,2015/08/30 19:00:00,Domingo,Extremadura,Badajoz,Don Benito,EX-345,"1",38.947457,-5.868787,"1",,,,,Desconocido
"89",https://www.20minutos.es/noticia/2632711/0/sucesos-muere-ciclista-a-5026-palos-tras-ser-atropellado-por-turismo/,2015/12/18 19:30:00,Viernes,Andalucía,Huelva,Palos de la Frontera,A-5026,"3",37.210993,-6.887109,"1",,,,,Desconocido
"90",https://www.20minutos.es/noticia/2462277/0/fallece-ciclista-atropellado-por-camion-via-servicio-a-7-nijar/,2015/05/15 21:15:00,Viernes,Andalucía,Almería,Nijar,A-7,"487",36.906233,-2.212643,"1",,,,,Desconocido
"91",https://www.20minutos.es/noticia/2390885/0/fallece-ciclista-tras-ser-atropellado-quintanaortuno-burgos/,2015/02/27 21:45:00,Viernes,Castilla y León,Burgos,Quintanaortuño,N-623,"10",42.447497,-3.681859,"1",,,,,Desconocido
"92",https://elpais.com/ccaa/2015/08/20/madrid/1440059406_451083.html,2015/08/12 00:00:00,Miércoles,Comunidad de Madrid,Madrid,Buitrago de Lozoya,M-126,,40.981266,-3.627622,"1",,,Sí,Hombre,Desconocido
"93",https://www.20minutos.es/noticia/2714562/0/muere-ciclista-cubelles-barcelona-atropellado-por-coche/,2016/04/06 04:30:00,Miércoles,Cataluña/Catalunya,Barcelona,Cubelles,C-31,"137",41.206697,1.6695626,"1",,,,,Desconocido
"94",https://www.20minutos.es/noticia/2707662/0/muere-ciclista/atropellado/mataro/,2016/03/29 07:00:00,Martes,Cataluña/Catalunya,Barcelona,Mataró,N-II,,41.539632,2.4544316,"1",,,,,Desconocido
"95",https://www.20minutos.es/noticia/2807586/0/fallece-atropellado-ciclista-67-anos-tarazona-mancha-albacete/,2016/07/29 08:00:00,Lunes,Castilla-La Mancha,Albacete,Tarazona de la Mancha,CM-220,"25",39.186914,-1.741563,"1",,,,,Desconocido
"96",http://www.campeonesaranjuez.com/2016/07/un-ciclista-muy-grave-tras-ser.html,2016/07/05 10:00:00,Domingo,Castilla-La Mancha,Toledo,Seseña,M-305,,40.092641,-3.622979,"1",,,,,J.A.B
"97",https://www.20minutos.es/noticia/2820961/0/fallecen-ciclistas-botorrita-zaragoza/,2016/08/21 10:00:00,Lunes,Aragón,Zaragoza,Botorrita,N-330,"476",41.520131,-1.029866,"2",Sí,,No,Hombre,"Desconocido, Desconocido"
"98",https://www.farodevigo.es/sucesos/2016/03/12/ciclista-fallece-10-resultan-heridos/1421727.html,2016/03/13 11:15:00,Sábado,Galicia,Pontevedra,A Guarda,PO-552,"44",41.944527,-8.881864,"2",No,No,No,Hombre,"Desconocido, Desconocido"
"99",https://www.20minutos.es/noticia/2751885/0/fallece-ciclista-75-anos-atropellado-por-turismo-medina-campo-valladolid/,2016/05/20 12:00:00,Viernes,Castilla y León,Valladolid,Medina del Campo,VP-8903,"5",41.293027,-4.947168,"1",,,,,M.G.B
"100",https://as.com/ciclismo/2016/12/12/mas_ciclismo/1481568361_885972.html,2016/12/12 13:00:00,Lunes,Cataluña/Catalunya,Tarragona,Vilabella,TP-2031,"19",41.256945,1.3166692,"1",No,No,Sí,Hombre,Desconocido
"101",https://www.lainformacion.com/catastrofes-y-accidentes/organizaciones-de-socorro/fallece-un-ciclista-atropellado-en-la-carretera-que-une-roquetas-de-mar-con-almerimar_v8Uf95SwKog2DC9zL2G5N/,2016/03/02 15:15:00,Viernes,Andalucía,Almería,El Ejido,,,36.776942,-2.791714,"1",,,,,Desconocido
"102",https://www.elmira.es/28/04/2016/un-ciclista-muere-atropellado-por-una-moto/,2016/04/28 16:45:00,Jueves,Andalucía,Cádiz,Jerez de la Frontera,A-2003,"2",36.685308,-6.087922,"1",,,,Hombre,F.R.B
"103",http://www.elmundo.es/madrid/2016/06/17/57645ba3e2704e272e8b4579.html,2016/06/17 17:30:00,Viernes,Comunidad de Madrid,Madrid,Soto del Real,M-608,"16",40.748437,-3.797108,"1",,,,,Desconocido
"104",https://www.esciclismo.com/ampliada.asp?Id=36860,2016/02/13 10:00:00,Sábado,Andalucía,Sevilla,Trebujena,A-471,"36",36.904894,-6.06719,"1",,,Sí,,Desconocido
"105",https://www.20minutos.es/noticia/2718942/0/sucesos-ciclista-73-anos-muere-atropellado-por-camion-reparto-torrent/,2016/04/11 12:00:00,Lunes,Comunitat Valenciana,València,Torrent,CV-405,"2",39.425473,-0.502564,"1",,,,,Desconocido
"106",https://www.20minutos.es/noticia/2748654/0/fallece-ciclista-tras-ser-atropellado-por-camion-puerto-lumbreras/,2016/05/17 12:15:00,Martes,Región de Murcia,Murcia,Puerto Lumbreras,RM-D16,"1",37.566405,-1.79465,"1",,,,,Desconocido
"107",http://pedaleandoporcanarias.com/2016/06/fallece-un-ciclista-en-gran-canaria-tras-una-colision-contra-un-vehiculo/,2016/06/15 13:45:00,Miércoles,Canarias,Las Palmas,San Mateo (Gran Canaria),GC-15,,28.008764,-15.54648,"1",,,,,Desconocido
"108",https://www.tribunavalladolid.com/noticias/muere-un-ciclista-en-valladolid-atropellado-por-un-camion-en-la-va-30,2016/02/25 14:30:00,Jueves,Castilla y León,Valladolid,Valladolid,VA-30,"19",41.615981,-4.77648,"1",,,,,J.N.P.
"109",https://www.20minutos.es/noticia/2778808/0/muere-ciclista-tras-ser-atropellado-por-coche-menorca/,2016/06/21 17:30:00,Martes,Illes Balears,Illes Balears,Es Mercadal (Menorca),ME-1,"19",39.969927,4.0942549,"1",,,,,Desconocido
"110",,2017/09/13 11:30:00,Miércoles,Castilla y León,Segovia,El Espinar,N-VI,"63",40.728622,-4.238058,"1",,,,,M.G.V
"111",https://www.20minutos.es/noticia/3073696/0/muere-ciclista-toledo-atropellado-por-conductor-que-se-ha-dado-a-la-fuga/,2017/06/24 08:00:00,Sábado,Castilla y León,Toledo,Palomeque,CM-4004,"16",40.129613,-3.955186,"1",,,Sí,,Desconocido
"112",https://www.diarioinformacion.com/alicante/2017/06/12/muere-ciclista-atropellado-conductor-drogado/1905047.html,2017/06/11 08:00:00,Domingo,Comunitat Valenciana,València,Oliva,N-332,"210",38.909289,-0.099236,"1",,Sí,Sí,Hombre,Alejandro Jaén
"113",https://elpais.com/ccaa/2017/05/07/valencia/1494148008_474106.html,2017/05/08 08:30:00,Domingo,Comunitat Valenciana,València,Oliva,N-332,"206",38.871516,-0.028799,"3",Sí,Sí,No,Mujer,"Luis Alberto Contreras, José Antonio Albi, Eduardo Monfort Gasent"
"114",https://elpais.com/politica/2017/10/29/actualidad/1509278068_171839.html,2017/10/29 09:30:00,Domingo,Cataluña/Catalunya,Barcelona,Gavà,C-31,"184",41.269408,1.9979251,"1",,,,,Desconocido
"115",https://www.laverdad.es/murcia/comarcas/201702/11/herido-ciclista-colisionar-furgoneta-20170211123541.html,2017/02/11 09:45:00,Sábado,Región de Murcia,Murcia,Abarán,N-301,"360",38.222187,-1.366743,"1",,,,,Desconocido
"116",https://www.20minutos.es/noticia/3019351/0/sucesos-fallece-ciclista-atropellado-por-furgoneta-a-385-su-paso-por-gabias/,2017/04/24 09:45:00,Lunes,Andalucía,Granada,Las Gabias,A-385,"15",37.138271,-3.73161,"1",,,,,Desconocido
"117",https://elpais.com/politica/2017/06/10/actualidad/1497089021_759640.html,2017/06/10 10:00:00,Sábado,Comunidad Foral de Navarra,Navarra,Erice de Iza,N-240-A,"13",42.888649,-1.770803,"1",No,No,No,,Desconocido
"118",https://elpais.com/politica/2017/07/16/actualidad/1500206407_039015.html,2017/07/16 12:15:00,Domingo,Aragón,Teruel,Teruel,N-420,"584",40.330352,-1.117901,"1",Sí,,,,J. L. A. S.
"119",https://www.hoy.es/prov-caceres/fallece-ciclista-atropellado-20171220193344-nt.html,2017/12/20 16:45:00,Miércoles,Extremadura,Cáceres,Arroyomolinos de la Vera,EX-213,"6",40.061822,-5.859348,"1",,,,,Enrique Paniagua
"120",https://www.20minutos.es/noticia/3190533/0/muere-ciclista-menor-edad-colision-turismo/,2017/11/17 20:00:00,Viernes,Cataluña/Catalunya,Barcelona,Sant Llorenç de Savall,B-124,"20",41.670049,2.054352,"1",,,,,Desconocido
"121",https://www.lne.es/sucesos/2017/04/16/fallece-artesana-gloria-prol-chocar/2089480.html,2017/04/13 20:15:00,Jueves,Principado de Asturias,Principado de Asturias,Lllanes,LLN-1,,43.418306,-4.74708,"1",,,,,Gloria Prol
"122",https://www.20minutos.es/noticia/3116114/0/ciclista-muerto-heridos-domingo/,2017/08/27 21:15:00,Domingo,Cataluña/Catalunya,Lleida,Seròs,C-45,"15",41.398633,0.45527,"1",,,,,Desconocido
"123",https://elpais.com/politica/2017/08/04/actualidad/1501866285_873729.html,2017/08/04 10:00:00,Viernes,Aragón,Huesca,Estopiñán del Castillo,N-230,"50",41.993007,0.4846376,"1",,,,,Desconocido
"124",https://www.diariodeibiza.es/pitiuses-balears/2017/04/30/muere-ciclista-34-anos-arrollado/912636.html,2017/04/29 10:00:00,Viernes,Illes Balears,Illes Balears,Sant Josep de sa Talaia (Ibiza),PM-803,"18",38.95516,1.3070085,"1",Sí,,Sí,Hombre,Desconocido
"125",https://www.20minutos.es/noticia/3003786/0/muere-atropellado-ciclista-84-anos-vilanova-bellpuig-lleida/,2017/04/04 11:00:00,Martes,Cataluña/Catalunya,Lleida,Vilanova de Bellpuig,C-233,"78",41.615492,0.976818,"1",,,,,J.S.S.
"126",https://elpais.com/ccaa/2017/06/28/catalunya/1498649890_965804.html,2017/06/28 11:45:00,Miércoles,Cataluña/Catalunya,Tarragona,El Vendrell,N-340,"1190",41.208072,1.5351101,"1",,,,,Desconocido
"127",https://www.20minutos.es/noticia/3097714/0/muere-ciclista-chocar-moto-puerto-canencia-madrid/,2017/07/23 12:15:00,Domingo,Comunidad de Madrid,Madrid,Miraflores de la Sierra,M-629,"6",40.829592,-3.76687,"1",,,,,Desconocido
"128",https://www.20minutos.es/noticia/3184385/0/muere-menor-atropellado-camion-tarragona-cuando-iba-bici/,2017/11/11 13:45:00,Sábado,Cataluña/Catalunya,Tarragona,Tortosa,TV-3421,"25",40.804496,0.4869813,"1",No,Sí,No,Hombre,Desconocido
"129",https://www.20minutos.es/noticia/3014419/0/muere-ciclista-tras-ser-atropellado-por-coche-carretera-art/,2017/04/18 14:00:00,Martes,Illes Balears,Illes Balears,Artà (Mallorca),MA-12,,39.695676,3.2773883,"1",,,,,Desconocido
"130",https://www.20minutos.es/noticia/3008469/0/fallece-atropellado-ciclista-36-anos-poio-pontevedra/,2017/04/09 14:00:00,Domingo,Galicia,Pontevedra,Poio,PO-308,"8",42.434503,-8.669915,"1",,,,Hombre,J.V.V
"131",https://elpais.com/politica/2017/07/09/actualidad/1499625390_840930.html,2017/07/09 18:15:00,Domingo,Castilla y León,León,Páramo del Sil,CL-631,"35",42.813817,-6.510774,"1",,,,,Desconocido
"132",https://www.20minutos.es/noticia/2980176/0/muere-ciclista-tras-ser-atropellado-por-turismo-antigua-n-340-vinar-s/,2017/03/09 19:00:00,Miércoles,Comunitat Valenciana,Castelló,Vinaròs,N-340,"1049",40.479461,0.4716736,"1",,,,,Desconocido
"133",https://www.20minutos.es/noticia/3062855/0/muere-ciclista-choca-coche-alicante/,2017/06/12 20:15:00,Lunes,Comunitat Valenciana,Alacant,Villajoyosa,N-332,"141",38.528048,-0.200113,"1",No,No,No,Hombre,F.O.L
"134",https://elpais.com/ccaa/2018/08/05/catalunya/1533459759_098186.html,2018/08/05 08:15:00,Domingo,Cataluña/Catalunya,Tarragona,Montbrió del Camp,T-310,"8",41.130563,1.0214255,"2",No,Sí,No,Hombre,"Desconocido, Desconocido"
"135",https://www.20minutos.es/noticia/3406463/0/muere-ciclista-arrollado-turismo-guardamar/,2018/07/29 08:30:00,Domingo,Comunitat Valenciana,Alacant,Guardamar del Segura,N-332,"68",38.070805,-0.655678,"1",,,,,Desconocido
"136",https://www.lavanguardia.com/sucesos/20180406/442238068606/muere-ciclista-aleman-atropellado-mallorca.html,2018/04/05 09:30:00,Miércoles,Illes Balears,Illes Balears,Capdepera (Mallorca),MA-15,"5",39.700317,3.4162071,"1",,Sí,No,Mujer,Desconocido
"137",https://www.laopinion.es/sucesos/2018/03/18/ciclista-belga-muere-arrollado-ciclomotor/860568.html,2018/03/17 10:30:00,Sábado,Canarias,Tenerife,Chimiche (Tenerife),TF-28,"66",28.132873,-16.5387,"1",,,,,Desconocido
"138",https://www.20minutos.es/noticia/3380855/0/mueren-atropellados-dos-ciclistas-conductor-detenido/,2018/06/28 11:00:00,Jueves,Castilla y León,León,Matallana de Valmadrigal,N-601,,42.353692,-5.325795,"2",Sí,,Sí,Hombre,"Desconocido, Desconocido"
"139",https://www.lavozdegalicia.es/noticia/lugo/lugo/2018/06/26/ciclista-fallecido-outeiro-rei-sufrio-ningun-mareo-pedaleaba/00031530046627427466740.htm,2018/06/17 11:45:00,Domingo,Galicia,Lugo,Outeiro do Rei,LU-115,,43.109037,-7.594883,"1",,,,,C. G. R.
"140",https://www.20minutos.es/noticia/3301545/0/muere-ciclista-atropello-sevilla/,2018/03/30 14:00:00,Viernes,Andalucía,Sevilla,Guillena,N-630,,37.539119,-6.096783,"1",,,,,Desconocido
"141",https://elpais.com/politica/2018/03/30/diario_de_espana/1522403354_031532.html,2018/03/28 16:45:00,Miércoles,Extremadura,Badajoz,Hornachuelos,A-431,"38",38.552074,-6.082623,"1",,,,,José Ángel Aceitón
"142",,2018/06/05 17:30:00,Martes,Castilla y León,Palencia,Melgar de Yuso,PP-4311,"11",42.24636,-4.248707,"1",,,,,R.J.E.L
"143",http://www.gobiernodecanarias.org/noticias/se/1-1-2_Canarias/99347/fallece-ciclista-accidente-trafico-gran-canaria,2018/08/10 18:00:00,Viernes,Canarias,Las Palmas,Mogán (Gran Canaria),GC-505,"19",27.882936,-15.67779,"1",,,,,WPF
"144",https://elpais.com/ccaa/2018/05/25/catalunya/1527257235_904737.html,2018/05/20 19:00:00,Domingo,Cataluña/Catalunya,Barcelona,Igualada,C-31,,41.562293,1.608619,"1",,,Sí,Hombre,Desconocido
"145",https://www.20minutos.es/noticia/3383487/0/ciclista-atropellado-furgoneta-vehiculo-turismo-algete-madrid/,2018/07/01 10:00:00,Domingo,Comunidad de Madrid,Madrid,Algete,M-103,"10",40.587377,-3.507929,"1",,,,,Desconocido
"146",https://www.laprovincia.es/sucesos/2018/04/15/fallece-ciclista-colisiono-coche-cenobio/1048381.html,2018/05/15 11:30:00,Sábado,Canarias,Las Palmas,Cenobio de Valerón (Gran Canaria),GC-291,"3",28.141911,-15.6097,"1",,,,,Desconocido
"147",https://www.20minutos.es/noticia/3327063/0/muere-ciclista-atropellado-turismo-ejea-zaragoza/,2018/04/28 12:15:00,Sábado,Aragón,Zaragoza,Ejea de los Caballeros,A-125,,42.12711,-1.108459,"1",,,,,J.D.C.M
"148",https://www.20minutos.es/noticia/3376691/0/muere-ciclista-anos-golpeado-furgoneta-lozoya-madrid/#xtor=AD-15&xts=467263,2018/06/23 12:45:00,Sábado,Comunidad de Madrid,Madrid,Lozoya,M-637,"10",40.964408,-3.799748,"1",,,,,Desconocido
"149",https://www.elespanol.com/deportes/ciclismo/20180519/ciclista-muere-arrollado-camion-castellon/308469669_0.html,2018/05/19 13:00:00,Sábado,Comunitat Valenciana,Castelló,Barracas,N-234,,40.013955,-0.691041,"1",,,,,Desconocido
"150",https://www.lasprovincias.es/sucesos/ciclista-muere-atropello-villena-20180709093121-nt.html,2018/07/09 22:00:00,Domingo,Comunitat Valenciana,Alacant,Villena,CV-799,"3",38.631817,-0.816456,"1",,Sí,Sí,Hombre,Toni Díaz
"151",https://www.20minutos.es/noticia/3377319/0/fallece-ciclista-atropellado-ejido/,2018/06/25 23:00:00,Lunes,Andalucía,Almería,El Ejido,AL-9006,,36.724376,-2.826029,"1",,,,,Desconocido
"152",https://www.lavanguardia.com/sucesos/20230429/8932368/ciclista-muere-accidente-trafico-priorat.html,2023/04/29 16:30:00,Sábado,Cataluña/Catalunya,Tarragona,Cornudella de Monstant,C-242,"44",41.269707,0.9135884,"1",Sí,,Sí,Hombre,Desconocido
"153",https://www.elnortedecastilla.es/salamanca/muere-joven-ciclista-20230209204739-nt.html,2023/02/09 18:32:00,Jueves,Castilla y León,Salamanca,Villares de la Reina,N-620,"232",41.001347,-5.627735,"1",No,No,No,Hombre,Estela Domínguez
"154",https://www.elperiodicomediterraneo.com/sucesos/2023/04/21/muere-ciclista-accidentado-castello-guardia-civil-86323965.html,2023/04/21 11:00:00,Viernes,Comunitat Valenciana,Castelló,Castelló de la Plana,CS-22,"1",39.969838,-0.068214,"1",,,,Hombre,Desconocido
"155",https://rtvmiajadas.es/fallece-un-ciclista-miajadeno-tras-ser-atropellado-por-un-vehiculo/,2023/05/06 11:09:00,Sábado,Extremadura,Cáceres,Miajadas,EX-206,"5",39.115445,-5.899923,"1",,,,,J.S.
"156",https://www.ultimahora.es/sucesos/ultimas/2023/05/09/1933053/atropello-mortal-mallorca-ciclista-fallecido-positivo-drogas-del-conductor.html,2023/05/05 15:30:00,Viernes,Illes Balears,Illes Balears,Pollença (Mallorca),MA-10,"6",39.868223,2.969645,"1",,Sí,No,Hombre,Lesiak Andrzej Zbigniew
"157",https://www.eitb.eus/es/noticias/sociedad/detalle/9174842/fallece-ciclista-en-legutio-tras-ser-atropellado-por-furgoneta/,2023/04/17 12:00:00,Lunes,País Vasco/Euskadi,Araba/Álava,Legutio,N-240,"16",42.980097,-2.645004,"1",,,,,Desconocido
"158",https://www.lanuevacronica.com/muere-un-ciclista-de-68-anos-tras-ser-arrollado-por-un-turismo-en-vidanes,2023/04/16 13:52:00,Domingo,Castilla y León,León,Cistierna,N-625,"60",42.776003,-5.132555,"1",No,No,No,,E.G.G
"159",https://cronicaglobal.elespanol.com/vida/20220821/atropello-multiple-de-ciclistas-castellbisbal-dos-muertos/697180299_0.html,2022/08/21 10:47:00,Domingo,Cataluña/Catalunya,Barcelona,Castellbisbal,C-243c,"1",41.478162,1.938441,"2",,,Sí,Hombre,"José María de la Torre, Miguel Moya"
"160",https://www.ciclismoafondo.es/noticias/mil-ciclistas-cortan-carretera-en-terrassa-protestar-por-atropello-mortal-ciclista_253774_102.html,2022/03/19 07:50:00,Sábado,Cataluña/Catalunya,Barcelona,Terrassa,C-1415a,"21",41.598004,2.045474,"1",,Sí,Sí,Hombre,R.Z.M
"161",https://www.campeonesaranjuez.com/2022/10/un-ciclista-fallece-atropellado-en.html,2022/10/09 11:15:00,Domingo,Comunidad de Madrid,Madrid,Aranjuez,R-4,,40.006223,-3.613982,"1",,,,,Juan Martín Hurtado
"162",https://www.elconfidencial.com/deportes/ciclismo/2019-06-05/atropello-ciclista-muerte-madrid-el-boalo-m607_2056142/,2019/06/05 11:35:00,Miércoles,Comunidad de Madrid,Madrid,El Boalo,M-607,"47",40.696134,-3.917468,"1",,,,,Desconocido
"163",https://www.lavanguardia.com/local/madrid/20191226/472508753687/muere-atropellado-un-ciclista-de-58-anos-en-la-carretera-m-832-a-su-paso-por-rivas.html,2019/12/26 11:15:00,Jueves,Comunidad de Madrid,Madrid,Rivas-Vaciamadrid,M-823,"4",40.381355,-3.518865,"1",,,,,Desconocido
"164",https://www.noticiasdenavarra.com/actualidad/2022/04/13/acepta-40-meses-carcel-atropello-2085589.html,2019/06/04 12:12:00,Martes,Comunidad Foral de Navarra,Navarra,Agorreta (Esteríbar),N-135,"23",42.94649,-1.487182,"1",,,Sí,Hombre,Carlos Miranda Bretos
